{"type":"FeatureCollection","features":[{"type":"Feature","properties":{"State":"Alabama","Deaths":2093,"Age-adjusted Death Rate":47,"Year":2000,"name":"Alabama","desc":"Alabama","color":"","source":"Bing Maps","precision":"state/province"},"geometry":{"type":"Point","coordinates":[-86.8403091,32.7665062]}},{"type":"Feature","properties":{"State":"Alaska","Deaths":343,"Age-adjusted Death Rate":64.5,"Year":2000,"name":"Alaska","desc":"Alaska","color":"","source":"Bing Maps","precision":"state/province"},"geometry":{"type":"Point","coordinates":[-153.7042694,63.1742058]}},{"type":"Feature","properties":{"State":"Arizona","Deaths":2326,"Age-adjusted Death Rate":46.3,"Year":2000,"name":"Arizona","desc":"Arizona","color":"","source":"Bing Maps","precision":"state/province"},"geometry":{"type":"Point","coordinates":[-111.6646957,34.2930832]}},{"type":"Feature","properties":{"State":"Arkansas","Deaths":1267,"Age-adjusted Death Rate":46.5,"Year":2000,"name":"Arkansas","desc":"Arkansas","color":"","source":"Bing Maps","precision":"state/province"},"geometry":{"type":"Point","coordinates":[-92.4388733,34.8999214]}},{"type":"Feature","properties":{"State":"California","Deaths":8577,"Age-adjusted Death Rate":26.5,"Year":2000,"name":"California","desc":"California","color":"","source":"Bing Maps","precision":"state/province"},"geometry":{"type":"Point","coordinates":[-119.6175232,37.2551003]}},{"type":"Feature","properties":{"State":"Colorado","Deaths":1702,"Age-adjusted Death Rate":42.6,"Year":2000,"name":"Colorado","desc":"Colorado","color":"","source":"Bing Maps","precision":"state/province"},"geometry":{"type":"Point","coordinates":[-105.5478134,38.9985428]}},{"type":"Feature","properties":{"State":"Connecticut","Deaths":1175,"Age-adjusted Death Rate":32.8,"Year":2000,"name":"Connecticut","desc":"Connecticut","color":"","source":"Bing Maps","precision":"state/province"},"geometry":{"type":"Point","coordinates":[-72.7383041,41.5735016]}},{"type":"Feature","properties":{"State":"Delaware","Deaths":290,"Age-adjusted Death Rate":37.5,"Year":2000,"name":"Delaware","desc":"Delaware","color":"","source":"Bing Maps","precision":"state/province"},"geometry":{"type":"Point","coordinates":[-75.4674683,39.0081253]}},{"type":"Feature","properties":{"State":"District of Columbia","Deaths":204,"Age-adjusted Death Rate":35.7,"Year":2000,"name":"District of Columbia","desc":"District of Columbia","color":"","source":"Bing Maps","precision":"state/province"},"geometry":{"type":"Point","coordinates":[-77.0172653,38.906189]}},{"type":"Feature","properties":{"State":"Florida","Deaths":6267,"Age-adjusted Death Rate":37.3,"Year":2000,"name":"Florida","desc":"Florida","color":"","source":"Bing Maps","precision":"state/province"},"geometry":{"type":"Point","coordinates":[-82.4722214,28.4925823]}},{"type":"Feature","properties":{"State":"Georgia","Deaths":3103,"Age-adjusted Death Rate":40.8,"Year":2000,"name":"Georgia","desc":"Georgia","color":"","source":"Bing Maps","precision":"state/province"},"geometry":{"type":"Point","coordinates":[-83.4445572,32.6483307]}},{"type":"Feature","properties":{"State":"Hawaii","Deaths":343,"Age-adjusted Death Rate":28.2,"Year":2000,"name":"Hawaii","desc":"Hawaii","color":"","source":"Bing Maps","precision":"state/province"},"geometry":{"type":"Point","coordinates":[-155.5185547,19.5985184]}},{"type":"Feature","properties":{"State":"Idaho","Deaths":518,"Age-adjusted Death Rate":41.5,"Year":2000,"name":"Idaho","desc":"Idaho","color":"","source":"Bing Maps","precision":"state/province"},"geometry":{"type":"Point","coordinates":[-114.6594162,44.3890305]}},{"type":"Feature","properties":{"State":"Illinois","Deaths":4041,"Age-adjusted Death Rate":32.8,"Year":2000,"name":"Illinois","desc":"Illinois","color":"","source":"Bing Maps","precision":"state/province"},"geometry":{"type":"Point","coordinates":[-89.1587677,40.1139374]}},{"type":"Feature","properties":{"State":"Indiana","Deaths":2139,"Age-adjusted Death Rate":35.4,"Year":2000,"name":"Indiana","desc":"Indiana","color":"","source":"Bing Maps","precision":"state/province"},"geometry":{"type":"Point","coordinates":[-86.2817993,39.9198036]}},{"type":"Feature","properties":{"State":"Iowa","Deaths":1070,"Age-adjusted Death Rate":33.4,"Year":2000,"name":"Iowa","desc":"Iowa","color":"","source":"Bing Maps","precision":"state/province"},"geometry":{"type":"Point","coordinates":[-93.4999695,42.0746994]}},{"type":"Feature","properties":{"State":"Kansas","Deaths":1054,"Age-adjusted Death Rate":38,"Year":2000,"name":"Kansas","desc":"Kansas","color":"","source":"Bing Maps","precision":"state/province"},"geometry":{"type":"Point","coordinates":[-98.3801727,38.484726]}},{"type":"Feature","properties":{"State":"Kentucky","Deaths":1838,"Age-adjusted Death Rate":45.7,"Year":2000,"name":"Kentucky","desc":"Kentucky","color":"","source":"Bing Maps","precision":"state/province"},"geometry":{"type":"Point","coordinates":[-85.2876205,37.5272331]}},{"type":"Feature","properties":{"State":"Louisiana","Deaths":2006,"Age-adjusted Death Rate":45.9,"Year":2000,"name":"Louisiana","desc":"Louisiana","color":"","source":"Bing Maps","precision":"state/province"},"geometry":{"type":"Point","coordinates":[-91.8519058,30.9665108]}},{"type":"Feature","properties":{"State":"Maine","Deaths":407,"Age-adjusted Death Rate":30.9,"Year":2000,"name":"Maine","desc":"Maine","color":"","source":"Bing Maps","precision":"state/province"},"geometry":{"type":"Point","coordinates":[-69.203949,45.3152809]}},{"type":"Feature","properties":{"State":"Vermont","Deaths":5066,"Age-adjusted Death Rate":751.6,"Year":2005,"name":"Vermont","desc":"Vermont","color":"","source":"Bing Maps","precision":"state/province"},"geometry":{"type":"Point","coordinates":[-72.6626892,44.0752029]}},{"type":"Feature","properties":{"State":"Maryland","Deaths":1182,"Age-adjusted Death Rate":23.3,"Year":2000,"name":"Maryland","desc":"Maryland","color":"","source":"Bing Maps","precision":"state/province"},"geometry":{"type":"Point","coordinates":[-76.7012177,38.9525223]}},{"type":"Feature","properties":{"State":"Massachusetts","Deaths":1357,"Age-adjusted Death Rate":20.2,"Year":2000,"name":"Massachusetts","desc":"Massachusetts","color":"","source":"Bing Maps","precision":"state/province"},"geometry":{"type":"Point","coordinates":[-71.5661926,42.1561852]}},{"type":"Feature","properties":{"State":"Michigan","Deaths":3220,"Age-adjusted Death Rate":32.9,"Year":2000,"name":"Michigan","desc":"Michigan","color":"","source":"Bing Maps","precision":"state/province"},"geometry":{"type":"Point","coordinates":[-85.7351379,44.8626175]}},{"type":"Feature","properties":{"State":"Minnesota","Deaths":1711,"Age-adjusted Death Rate":34.3,"Year":2000,"name":"Minnesota","desc":"Minnesota","color":"","source":"Bing Maps","precision":"state/province"},"geometry":{"type":"Point","coordinates":[-94.1983795,46.3493538]}},{"type":"Feature","properties":{"State":"Mississippi","Deaths":1653,"Age-adjusted Death Rate":58.9,"Year":2000,"name":"Mississippi","desc":"Mississippi","color":"","source":"Bing Maps","precision":"state/province"},"geometry":{"type":"Point","coordinates":[-89.6562424,32.7218018]}},{"type":"Feature","properties":{"State":"Missouri","Deaths":2398,"Age-adjusted Death Rate":41.9,"Year":2000,"name":"Missouri","desc":"Missouri","color":"","source":"Bing Maps","precision":"state/province"},"geometry":{"type":"Point","coordinates":[-92.4778824,38.3679657]}},{"type":"Feature","properties":{"State":"Montana","Deaths":495,"Age-adjusted Death Rate":53.9,"Year":2000,"name":"Montana","desc":"Montana","color":"","source":"Bing Maps","precision":"state/province"},"geometry":{"type":"Point","coordinates":[-109.6450806,47.0334816]}},{"type":"Feature","properties":{"State":"Nebraska","Deaths":640,"Age-adjusted Death Rate":35.3,"Year":2000,"name":"Nebraska","desc":"Nebraska","color":"","source":"Bing Maps","precision":"state/province"},"geometry":{"type":"Point","coordinates":[-99.8111038,41.5272713]}},{"type":"Feature","properties":{"State":"Nevada","Deaths":730,"Age-adjusted Death Rate":38.7,"Year":2000,"name":"Nevada","desc":"Nevada","color":"","source":"Bing Maps","precision":"state/province"},"geometry":{"type":"Point","coordinates":[-116.6554108,39.3564186]}},{"type":"Feature","properties":{"State":"New Hampshire","Deaths":321,"Age-adjusted Death Rate":26.3,"Year":2000,"name":"New Hampshire","desc":"New Hampshire","color":"","source":"Bing Maps","precision":"state/province"},"geometry":{"type":"Point","coordinates":[-71.5775986,43.6855278]}},{"type":"Feature","properties":{"State":"New Jersey","Deaths":2284,"Age-adjusted Death Rate":26.7,"Year":2000,"name":"New Jersey","desc":"New Jersey","color":"","source":"Bing Maps","precision":"state/province"},"geometry":{"type":"Point","coordinates":[-74.6769104,40.1387787]}},{"type":"Feature","properties":{"State":"New Mexico","Deaths":995,"Age-adjusted Death Rate":56.8,"Year":2000,"name":"New Mexico","desc":"New Mexico","color":"","source":"Bing Maps","precision":"state/province"},"geometry":{"type":"Point","coordinates":[-106.1084061,34.4213219]}},{"type":"Feature","properties":{"State":"New York","Deaths":4244,"Age-adjusted Death Rate":22,"Year":2000,"name":"New York","desc":"New York","color":"","source":"Bing Maps","precision":"state/province"},"geometry":{"type":"Point","coordinates":[-75.6106949,42.9370804]}},{"type":"Feature","properties":{"State":"North Carolina","Deaths":3525,"Age-adjusted Death Rate":44.7,"Year":2000,"name":"North Carolina","desc":"North Carolina","color":"","source":"Bing Maps","precision":"state/province"},"geometry":{"type":"Point","coordinates":[-79.1854095,35.5393448]}},{"type":"Feature","properties":{"State":"North Dakota","Deaths":248,"Age-adjusted Death Rate":35.3,"Year":2000,"name":"North Dakota","desc":"North Dakota","color":"","source":"Bing Maps","precision":"state/province"},"geometry":{"type":"Point","coordinates":[-100.469429,47.4462967]}},{"type":"Feature","properties":{"State":"Ohio","Deaths":3492,"Age-adjusted Death Rate":30.5,"Year":2000,"name":"Ohio","desc":"Ohio","color":"","source":"Bing Maps","precision":"state/province"},"geometry":{"type":"Point","coordinates":[-82.7112122,40.4130516]}},{"type":"Feature","properties":{"State":"Oklahoma","Deaths":1566,"Age-adjusted Death Rate":44.9,"Year":2000,"name":"Oklahoma","desc":"Oklahoma","color":"","source":"Bing Maps","precision":"state/province"},"geometry":{"type":"Point","coordinates":[-97.5086136,35.582695]}},{"type":"Feature","properties":{"State":"Oregon","Deaths":1248,"Age-adjusted Death Rate":35.8,"Year":2000,"name":"Oregon","desc":"Oregon","color":"","source":"Bing Maps","precision":"state/province"},"geometry":{"type":"Point","coordinates":[-120.5585861,43.9388123]}},{"type":"Feature","properties":{"State":"Pennsylvania","Deaths":4583,"Age-adjusted Death Rate":35.2,"Year":2000,"name":"Pennsylvania","desc":"Pennsylvania","color":"","source":"Bing Maps","precision":"state/province"},"geometry":{"type":"Point","coordinates":[-77.8387527,40.8965111]}},{"type":"Feature","properties":{"State":"Rhode Island","Deaths":235,"Age-adjusted Death Rate":20.5,"Year":2000,"name":"Rhode Island","desc":"Rhode Island","color":"","source":"Bing Maps","precision":"state/province"},"geometry":{"type":"Point","coordinates":[-71.4543152,41.4887123]}},{"type":"Feature","properties":{"State":"South Carolina","Deaths":1974,"Age-adjusted Death Rate":50,"Year":2000,"name":"South Carolina","desc":"South Carolina","color":"","source":"Bing Maps","precision":"state/province"},"geometry":{"type":"Point","coordinates":[-80.8937607,33.9038277]}},{"type":"Feature","properties":{"State":"South Dakota","Deaths":321,"Age-adjusted Death Rate":41.2,"Year":2000,"name":"South Dakota","desc":"South Dakota","color":"","source":"Bing Maps","precision":"state/province"},"geometry":{"type":"Point","coordinates":[-100.2305069,44.4361496]}},{"type":"Feature","properties":{"State":"Tennessee","Deaths":2743,"Age-adjusted Death Rate":48.5,"Year":2000,"name":"Tennessee","desc":"Tennessee","color":"","source":"Bing Maps","precision":"state/province"},"geometry":{"type":"Point","coordinates":[-86.3430481,35.8430023]}},{"type":"Feature","properties":{"State":"Texas","Deaths":7407,"Age-adjusted Death Rate":37.6,"Year":2000,"name":"Texas","desc":"Texas","color":"","source":"Bing Maps","precision":"state/province"},"geometry":{"type":"Point","coordinates":[-99.3330307,31.4627552]}},{"type":"Feature","properties":{"State":"Utah","Deaths":665,"Age-adjusted Death Rate":34.2,"Year":2000,"name":"Utah","desc":"Utah","color":"","source":"Bing Maps","precision":"state/province"},"geometry":{"type":"Point","coordinates":[-111.6782379,39.3237381]}},{"type":"Feature","properties":{"State":"Vermont","Deaths":234,"Age-adjusted Death Rate":38.1,"Year":2000,"name":"Vermont","desc":"Vermont","color":"","source":"Bing Maps","precision":"state/province"},"geometry":{"type":"Point","coordinates":[-72.6626892,44.0752029]}},{"type":"Feature","properties":{"State":"Virginia","Deaths":2396,"Age-adjusted Death Rate":35.4,"Year":2000,"name":"Virginia","desc":"Virginia","color":"","source":"Bing Maps","precision":"state/province"},"geometry":{"type":"Point","coordinates":[-78.6980972,37.5127869]}},{"type":"Feature","properties":{"State":"Washington","Deaths":2049,"Age-adjusted Death Rate":35.5,"Year":2000,"name":"Washington","desc":"Washington","color":"","source":"Bing Maps","precision":"state/province"},"geometry":{"type":"Point","coordinates":[-120.5562668,47.4112968]}},{"type":"Feature","properties":{"State":"West Virginia","Deaths":817,"Age-adjusted Death Rate":43.2,"Year":2000,"name":"West Virginia","desc":"West Virginia","color":"","source":"Bing Maps","precision":"state/province"},"geometry":{"type":"Point","coordinates":[-80.6136169,38.6424141]}},{"type":"Feature","properties":{"State":"Wisconsin","Deaths":2159,"Age-adjusted Death Rate":38.9,"Year":2000,"name":"Wisconsin","desc":"Wisconsin","color":"","source":"Bing Maps","precision":"state/province"},"geometry":{"type":"Point","coordinates":[-89.7367401,44.6417885]}},{"type":"Feature","properties":{"State":"Wyoming","Deaths":245,"Age-adjusted Death Rate":50.8,"Year":2000,"name":"Wyoming","desc":"Wyoming","color":"","source":"Bing Maps","precision":"state/province"},"geometry":{"type":"Point","coordinates":[-107.5515137,42.9995766]}},{"type":"Feature","properties":{"State":"Alabama","Deaths":2395,"Age-adjusted Death Rate":51.9,"Year":2005,"name":"Alabama","desc":"Alabama","color":"","source":"Bing Maps","precision":"state/province"},"geometry":{"type":"Point","coordinates":[-86.8403091,32.7665062]}},{"type":"Feature","properties":{"State":"Alaska","Deaths":313,"Age-adjusted Death Rate":50.8,"Year":2005,"name":"Alaska","desc":"Alaska","color":"","source":"Bing Maps","precision":"state/province"},"geometry":{"type":"Point","coordinates":[-153.7042694,63.1742058]}},{"type":"Feature","properties":{"State":"Arizona","Deaths":3150,"Age-adjusted Death Rate":54.7,"Year":2005,"name":"Arizona","desc":"Arizona","color":"","source":"Bing Maps","precision":"state/province"},"geometry":{"type":"Point","coordinates":[-111.6646957,34.2930832]}},{"type":"Feature","properties":{"State":"Arkansas","Deaths":1329,"Age-adjusted Death Rate":47,"Year":2005,"name":"Arkansas","desc":"Arkansas","color":"","source":"Bing Maps","precision":"state/province"},"geometry":{"type":"Point","coordinates":[-92.4388733,34.8999214]}},{"type":"Feature","properties":{"State":"California","Deaths":11129,"Age-adjusted Death Rate":31.7,"Year":2005,"name":"California","desc":"California","color":"","source":"Bing Maps","precision":"state/province"},"geometry":{"type":"Point","coordinates":[-119.6175232,37.2551003]}},{"type":"Feature","properties":{"State":"Colorado","Deaths":1947,"Age-adjusted Death Rate":44.1,"Year":2005,"name":"Colorado","desc":"Colorado","color":"","source":"Bing Maps","precision":"state/province"},"geometry":{"type":"Point","coordinates":[-105.5478134,38.9985428]}},{"type":"Feature","properties":{"State":"Connecticut","Deaths":1134,"Age-adjusted Death Rate":30.3,"Year":2005,"name":"Connecticut","desc":"Connecticut","color":"","source":"Bing Maps","precision":"state/province"},"geometry":{"type":"Point","coordinates":[-72.7383041,41.5735016]}},{"type":"Feature","properties":{"State":"Delaware","Deaths":293,"Age-adjusted Death Rate":34.5,"Year":2005,"name":"Delaware","desc":"Delaware","color":"","source":"Bing Maps","precision":"state/province"},"geometry":{"type":"Point","coordinates":[-75.4674683,39.0081253]}},{"type":"Feature","properties":{"State":"District of Columbia","Deaths":207,"Age-adjusted Death Rate":35.8,"Year":2005,"name":"District of Columbia","desc":"District of Columbia","color":"","source":"Bing Maps","precision":"state/province"},"geometry":{"type":"Point","coordinates":[-77.0172653,38.906189]}},{"type":"Feature","properties":{"State":"Florida","Deaths":8868,"Age-adjusted Death Rate":47.1,"Year":2005,"name":"Florida","desc":"Florida","color":"","source":"Bing Maps","precision":"state/province"},"geometry":{"type":"Point","coordinates":[-82.4722214,28.4925823]}},{"type":"Feature","properties":{"State":"Georgia","Deaths":3762,"Age-adjusted Death Rate":45,"Year":2005,"name":"Georgia","desc":"Georgia","color":"","source":"Bing Maps","precision":"state/province"},"geometry":{"type":"Point","coordinates":[-83.4445572,32.6483307]}},{"type":"Feature","properties":{"State":"Hawaii","Deaths":436,"Age-adjusted Death Rate":32,"Year":2005,"name":"Hawaii","desc":"Hawaii","color":"","source":"Bing Maps","precision":"state/province"},"geometry":{"type":"Point","coordinates":[-155.5185547,19.5985184]}},{"type":"Feature","properties":{"State":"Idaho","Deaths":606,"Age-adjusted Death Rate":43.7,"Year":2005,"name":"Idaho","desc":"Idaho","color":"","source":"Bing Maps","precision":"state/province"},"geometry":{"type":"Point","coordinates":[-114.6594162,44.3890305]}},{"type":"Feature","properties":{"State":"Illinois","Deaths":4182,"Age-adjusted Death Rate":33,"Year":2005,"name":"Illinois","desc":"Illinois","color":"","source":"Bing Maps","precision":"state/province"},"geometry":{"type":"Point","coordinates":[-89.1587677,40.1139374]}},{"type":"Feature","properties":{"State":"Indiana","Deaths":2480,"Age-adjusted Death Rate":39.3,"Year":2005,"name":"Indiana","desc":"Indiana","color":"","source":"Bing Maps","precision":"state/province"},"geometry":{"type":"Point","coordinates":[-86.2817993,39.9198036]}},{"type":"Feature","properties":{"State":"Iowa","Deaths":1202,"Age-adjusted Death Rate":36.7,"Year":2005,"name":"Iowa","desc":"Iowa","color":"","source":"Bing Maps","precision":"state/province"},"geometry":{"type":"Point","coordinates":[-93.4999695,42.0746994]}},{"type":"Feature","properties":{"State":"Kansas","Deaths":1149,"Age-adjusted Death Rate":40.6,"Year":2005,"name":"Kansas","desc":"Kansas","color":"","source":"Bing Maps","precision":"state/province"},"geometry":{"type":"Point","coordinates":[-98.3801727,38.484726]}},{"type":"Feature","properties":{"State":"Kentucky","Deaths":2405,"Age-adjusted Death Rate":57.4,"Year":2005,"name":"Kentucky","desc":"Kentucky","color":"","source":"Bing Maps","precision":"state/province"},"geometry":{"type":"Point","coordinates":[-85.2876205,37.5272331]}},{"type":"Feature","properties":{"State":"Louisiana","Deaths":3072,"Age-adjusted Death Rate":68.5,"Year":2005,"name":"Louisiana","desc":"Louisiana","color":"","source":"Bing Maps","precision":"state/province"},"geometry":{"type":"Point","coordinates":[-91.8519058,30.9665108]}},{"type":"Feature","properties":{"State":"Maine","Deaths":579,"Age-adjusted Death Rate":41.7,"Year":2005,"name":"Maine","desc":"Maine","color":"","source":"Bing Maps","precision":"state/province"},"geometry":{"type":"Point","coordinates":[-69.203949,45.3152809]}},{"type":"Feature","properties":{"State":"Maryland","Deaths":1376,"Age-adjusted Death Rate":25,"Year":2005,"name":"Maryland","desc":"Maryland","color":"","source":"Bing Maps","precision":"state/province"},"geometry":{"type":"Point","coordinates":[-76.7012177,38.9525223]}},{"type":"Feature","properties":{"State":"Massachusetts","Deaths":1907,"Age-adjusted Death Rate":28,"Year":2005,"name":"Massachusetts","desc":"Massachusetts","color":"","source":"Bing Maps","precision":"state/province"},"geometry":{"type":"Point","coordinates":[-71.5661926,42.1561852]}},{"type":"Feature","properties":{"State":"Michigan","Deaths":3451,"Age-adjusted Death Rate":34,"Year":2005,"name":"Michigan","desc":"Michigan","color":"","source":"Bing Maps","precision":"state/province"},"geometry":{"type":"Point","coordinates":[-85.7351379,44.8626175]}},{"type":"Feature","properties":{"State":"Minnesota","Deaths":1922,"Age-adjusted Death Rate":36.2,"Year":2005,"name":"Minnesota","desc":"Minnesota","color":"","source":"Bing Maps","precision":"state/province"},"geometry":{"type":"Point","coordinates":[-94.1983795,46.3493538]}},{"type":"Feature","properties":{"State":"Mississippi","Deaths":1936,"Age-adjusted Death Rate":67.1,"Year":2005,"name":"Mississippi","desc":"Mississippi","color":"","source":"Bing Maps","precision":"state/province"},"geometry":{"type":"Point","coordinates":[-89.6562424,32.7218018]}},{"type":"Feature","properties":{"State":"Missouri","Deaths":2848,"Age-adjusted Death Rate":47.8,"Year":2005,"name":"Missouri","desc":"Missouri","color":"","source":"Bing Maps","precision":"state/province"},"geometry":{"type":"Point","coordinates":[-92.4778824,38.3679657]}},{"type":"Feature","properties":{"State":"Montana","Deaths":524,"Age-adjusted Death Rate":53.2,"Year":2005,"name":"Montana","desc":"Montana","color":"","source":"Bing Maps","precision":"state/province"},"geometry":{"type":"Point","coordinates":[-109.6450806,47.0334816]}},{"type":"Feature","properties":{"State":"Nebraska","Deaths":704,"Age-adjusted Death Rate":37.4,"Year":2005,"name":"Nebraska","desc":"Nebraska","color":"","source":"Bing Maps","precision":"state/province"},"geometry":{"type":"Point","coordinates":[-99.8111038,41.5272713]}},{"type":"Feature","properties":{"State":"Nevada","Deaths":1104,"Age-adjusted Death Rate":47,"Year":2005,"name":"Nevada","desc":"Nevada","color":"","source":"Bing Maps","precision":"state/province"},"geometry":{"type":"Point","coordinates":[-116.6554108,39.3564186]}},{"type":"Feature","properties":{"State":"New Hampshire","Deaths":477,"Age-adjusted Death Rate":36.3,"Year":2005,"name":"New Hampshire","desc":"New Hampshire","color":"","source":"Bing Maps","precision":"state/province"},"geometry":{"type":"Point","coordinates":[-71.5775986,43.6855278]}},{"type":"Feature","properties":{"State":"New Jersey","Deaths":2561,"Age-adjusted Death Rate":28.8,"Year":2005,"name":"New Jersey","desc":"New Jersey","color":"","source":"Bing Maps","precision":"state/province"},"geometry":{"type":"Point","coordinates":[-74.6769104,40.1387787]}},{"type":"Feature","properties":{"State":"New Mexico","Deaths":1267,"Age-adjusted Death Rate":67,"Year":2005,"name":"New Mexico","desc":"New Mexico","color":"","source":"Bing Maps","precision":"state/province"},"geometry":{"type":"Point","coordinates":[-106.1084061,34.4213219]}},{"type":"Feature","properties":{"State":"New York","Deaths":4645,"Age-adjusted Death Rate":23.3,"Year":2005,"name":"New York","desc":"New York","color":"","source":"Bing Maps","precision":"state/province"},"geometry":{"type":"Point","coordinates":[-75.6106949,42.9370804]}},{"type":"Feature","properties":{"State":"North Carolina","Deaths":4123,"Age-adjusted Death Rate":47.9,"Year":2005,"name":"North Carolina","desc":"North Carolina","color":"","source":"Bing Maps","precision":"state/province"},"geometry":{"type":"Point","coordinates":[-79.1854095,35.5393448]}},{"type":"Feature","properties":{"State":"North Dakota","Deaths":287,"Age-adjusted Death Rate":39.7,"Year":2005,"name":"North Dakota","desc":"North Dakota","color":"","source":"Bing Maps","precision":"state/province"},"geometry":{"type":"Point","coordinates":[-100.469429,47.4462967]}},{"type":"Feature","properties":{"State":"Ohio","Deaths":4438,"Age-adjusted Death Rate":37.7,"Year":2005,"name":"Ohio","desc":"Ohio","color":"","source":"Bing Maps","precision":"state/province"},"geometry":{"type":"Point","coordinates":[-82.7112122,40.4130516]}},{"type":"Feature","properties":{"State":"Oklahoma","Deaths":2005,"Age-adjusted Death Rate":56.1,"Year":2005,"name":"Oklahoma","desc":"Oklahoma","color":"","source":"Bing Maps","precision":"state/province"},"geometry":{"type":"Point","coordinates":[-97.5086136,35.582695]}},{"type":"Feature","properties":{"State":"Oregon","Deaths":1469,"Age-adjusted Death Rate":38.8,"Year":2005,"name":"Oregon","desc":"Oregon","color":"","source":"Bing Maps","precision":"state/province"},"geometry":{"type":"Point","coordinates":[-120.5585861,43.9388123]}},{"type":"Feature","properties":{"State":"Pennsylvania","Deaths":5446,"Age-adjusted Death Rate":40.8,"Year":2005,"name":"Pennsylvania","desc":"Pennsylvania","color":"","source":"Bing Maps","precision":"state/province"},"geometry":{"type":"Point","coordinates":[-77.8387527,40.8965111]}},{"type":"Feature","properties":{"State":"Rhode Island","Deaths":334,"Age-adjusted Death Rate":27.6,"Year":2005,"name":"Rhode Island","desc":"Rhode Island","color":"","source":"Bing Maps","precision":"state/province"},"geometry":{"type":"Point","coordinates":[-71.4543152,41.4887123]}},{"type":"Feature","properties":{"State":"South Carolina","Deaths":2272,"Age-adjusted Death Rate":53.4,"Year":2005,"name":"South Carolina","desc":"South Carolina","color":"","source":"Bing Maps","precision":"state/province"},"geometry":{"type":"Point","coordinates":[-80.8937607,33.9038277]}},{"type":"Feature","properties":{"State":"South Dakota","Deaths":402,"Age-adjusted Death Rate":48.7,"Year":2005,"name":"South Dakota","desc":"South Dakota","color":"","source":"Bing Maps","precision":"state/province"},"geometry":{"type":"Point","coordinates":[-100.2305069,44.4361496]}},{"type":"Feature","properties":{"State":"Tennessee","Deaths":3147,"Age-adjusted Death Rate":52.6,"Year":2005,"name":"Tennessee","desc":"Tennessee","color":"","source":"Bing Maps","precision":"state/province"},"geometry":{"type":"Point","coordinates":[-86.3430481,35.8430023]}},{"type":"Feature","properties":{"State":"Texas","Deaths":8598,"Age-adjusted Death Rate":40.4,"Year":2005,"name":"Texas","desc":"Texas","color":"","source":"Bing Maps","precision":"state/province"},"geometry":{"type":"Point","coordinates":[-99.3330307,31.4627552]}},{"type":"Feature","properties":{"State":"Utah","Deaths":743,"Age-adjusted Death Rate":34.6,"Year":2005,"name":"Utah","desc":"Utah","color":"","source":"Bing Maps","precision":"state/province"},"geometry":{"type":"Point","coordinates":[-111.6782379,39.3237381]}},{"type":"Feature","properties":{"State":"Vermont","Deaths":272,"Age-adjusted Death Rate":42.1,"Year":2005,"name":"Vermont","desc":"Vermont","color":"","source":"Bing Maps","precision":"state/province"},"geometry":{"type":"Point","coordinates":[-72.6626892,44.0752029]}},{"type":"Feature","properties":{"State":"Virginia","Deaths":2638,"Age-adjusted Death Rate":35.6,"Year":2005,"name":"Virginia","desc":"Virginia","color":"","source":"Bing Maps","precision":"state/province"},"geometry":{"type":"Point","coordinates":[-78.6980972,37.5127869]}},{"type":"Feature","properties":{"State":"Washington","Deaths":2543,"Age-adjusted Death Rate":40.4,"Year":2005,"name":"Washington","desc":"Washington","color":"","source":"Bing Maps","precision":"state/province"},"geometry":{"type":"Point","coordinates":[-120.5562668,47.4112968]}},{"type":"Feature","properties":{"State":"West Virginia","Deaths":940,"Age-adjusted Death Rate":49.6,"Year":2005,"name":"West Virginia","desc":"West Virginia","color":"","source":"Bing Maps","precision":"state/province"},"geometry":{"type":"Point","coordinates":[-80.6136169,38.6424141]}},{"type":"Feature","properties":{"State":"Wisconsin","Deaths":2490,"Age-adjusted Death Rate":42.8,"Year":2005,"name":"Wisconsin","desc":"Wisconsin","color":"","source":"Bing Maps","precision":"state/province"},"geometry":{"type":"Point","coordinates":[-89.7367401,44.6417885]}},{"type":"Feature","properties":{"State":"Wyoming","Deaths":302,"Age-adjusted Death Rate":58.7,"Year":2005,"name":"Wyoming","desc":"Wyoming","color":"","source":"Bing Maps","precision":"state/province"},"geometry":{"type":"Point","coordinates":[-107.5515137,42.9995766]}},{"type":"Feature","properties":{"State":"Alabama","Deaths":2394,"Age-adjusted Death Rate":49.6,"Year":2010,"name":"Alabama","desc":"Alabama","color":"","source":"Bing Maps","precision":"state/province"},"geometry":{"type":"Point","coordinates":[-86.8403091,32.7665062]}},{"type":"Feature","properties":{"State":"Alaska","Deaths":366,"Age-adjusted Death Rate":58.7,"Year":2010,"name":"Alaska","desc":"Alaska","color":"","source":"Bing Maps","precision":"state/province"},"geometry":{"type":"Point","coordinates":[-153.7042694,63.1742058]}},{"type":"Feature","properties":{"State":"Arizona","Deaths":3018,"Age-adjusted Death Rate":46.7,"Year":2010,"name":"Arizona","desc":"Arizona","color":"","source":"Bing Maps","precision":"state/province"},"geometry":{"type":"Point","coordinates":[-111.6646957,34.2930832]}},{"type":"Feature","properties":{"State":"Arkansas","Deaths":1461,"Age-adjusted Death Rate":49.4,"Year":2010,"name":"Arkansas","desc":"Arkansas","color":"","source":"Bing Maps","precision":"state/province"},"geometry":{"type":"Point","coordinates":[-92.4388733,34.8999214]}},{"type":"Feature","properties":{"State":"California","Deaths":10435,"Age-adjusted Death Rate":27.8,"Year":2010,"name":"California","desc":"California","color":"","source":"Bing Maps","precision":"state/province"},"geometry":{"type":"Point","coordinates":[-119.6175232,37.2551003]}},{"type":"Feature","properties":{"State":"Colorado","Deaths":2106,"Age-adjusted Death Rate":43.5,"Year":2010,"name":"Colorado","desc":"Colorado","color":"","source":"Bing Maps","precision":"state/province"},"geometry":{"type":"Point","coordinates":[-105.5478134,38.9985428]}},{"type":"Feature","properties":{"State":"Connecticut","Deaths":1337,"Age-adjusted Death Rate":33.6,"Year":2010,"name":"Connecticut","desc":"Connecticut","color":"","source":"Bing Maps","precision":"state/province"},"geometry":{"type":"Point","coordinates":[-72.7383041,41.5735016]}},{"type":"Feature","properties":{"State":"Delaware","Deaths":357,"Age-adjusted Death Rate":39.2,"Year":2010,"name":"Delaware","desc":"Delaware","color":"","source":"Bing Maps","precision":"state/province"},"geometry":{"type":"Point","coordinates":[-75.4674683,39.0081253]}},{"type":"Feature","properties":{"State":"District of Columbia","Deaths":212,"Age-adjusted Death Rate":35.1,"Year":2010,"name":"District of Columbia","desc":"District of Columbia","color":"","source":"Bing Maps","precision":"state/province"},"geometry":{"type":"Point","coordinates":[-77.0172653,38.906189]}},{"type":"Feature","properties":{"State":"Florida","Deaths":8875,"Age-adjusted Death Rate":43.1,"Year":2010,"name":"Florida","desc":"Florida","color":"","source":"Bing Maps","precision":"state/province"},"geometry":{"type":"Point","coordinates":[-82.4722214,28.4925823]}},{"type":"Feature","properties":{"State":"Georgia","Deaths":3745,"Age-adjusted Death Rate":40.7,"Year":2010,"name":"Georgia","desc":"Georgia","color":"","source":"Bing Maps","precision":"state/province"},"geometry":{"type":"Point","coordinates":[-83.4445572,32.6483307]}},{"type":"Feature","properties":{"State":"Hawaii","Deaths":432,"Age-adjusted Death Rate":29.6,"Year":2010,"name":"Hawaii","desc":"Hawaii","color":"","source":"Bing Maps","precision":"state/province"},"geometry":{"type":"Point","coordinates":[-155.5185547,19.5985184]}},{"type":"Feature","properties":{"State":"Idaho","Deaths":654,"Age-adjusted Death Rate":42.1,"Year":2010,"name":"Idaho","desc":"Idaho","color":"","source":"Bing Maps","precision":"state/province"},"geometry":{"type":"Point","coordinates":[-114.6594162,44.3890305]}},{"type":"Feature","properties":{"State":"Illinois","Deaths":3997,"Age-adjusted Death Rate":30.4,"Year":2010,"name":"Illinois","desc":"Illinois","color":"","source":"Bing Maps","precision":"state/province"},"geometry":{"type":"Point","coordinates":[-89.1587677,40.1139374]}},{"type":"Feature","properties":{"State":"Indiana","Deaths":2534,"Age-adjusted Death Rate":38.5,"Year":2010,"name":"Indiana","desc":"Indiana","color":"","source":"Bing Maps","precision":"state/province"},"geometry":{"type":"Point","coordinates":[-86.2817993,39.9198036]}},{"type":"Feature","properties":{"State":"Iowa","Deaths":1273,"Age-adjusted Death Rate":37.2,"Year":2010,"name":"Iowa","desc":"Iowa","color":"","source":"Bing Maps","precision":"state/province"},"geometry":{"type":"Point","coordinates":[-93.4999695,42.0746994]}},{"type":"Feature","properties":{"State":"Kansas","Deaths":1317,"Age-adjusted Death Rate":44,"Year":2010,"name":"Kansas","desc":"Kansas","color":"","source":"Bing Maps","precision":"state/province"},"geometry":{"type":"Point","coordinates":[-98.3801727,38.484726]}},{"type":"Feature","properties":{"State":"Kentucky","Deaths":2632,"Age-adjusted Death Rate":60.5,"Year":2010,"name":"Kentucky","desc":"Kentucky","color":"","source":"Bing Maps","precision":"state/province"},"geometry":{"type":"Point","coordinates":[-85.2876205,37.5272331]}},{"type":"Feature","properties":{"State":"Louisiana","Deaths":1999,"Age-adjusted Death Rate":44.4,"Year":2010,"name":"Louisiana","desc":"Louisiana","color":"","source":"Bing Maps","precision":"state/province"},"geometry":{"type":"Point","coordinates":[-91.8519058,30.9665108]}},{"type":"Feature","properties":{"State":"Maine","Deaths":540,"Age-adjusted Death Rate":36.6,"Year":2010,"name":"Maine","desc":"Maine","color":"","source":"Bing Maps","precision":"state/province"},"geometry":{"type":"Point","coordinates":[-69.203949,45.3152809]}},{"type":"Feature","properties":{"State":"Maryland","Deaths":1446,"Age-adjusted Death Rate":24.7,"Year":2010,"name":"Maryland","desc":"Maryland","color":"","source":"Bing Maps","precision":"state/province"},"geometry":{"type":"Point","coordinates":[-76.7012177,38.9525223]}},{"type":"Feature","properties":{"State":"Massachusetts","Deaths":2060,"Age-adjusted Death Rate":28.5,"Year":2010,"name":"Massachusetts","desc":"Massachusetts","color":"","source":"Bing Maps","precision":"state/province"},"geometry":{"type":"Point","coordinates":[-71.5661926,42.1561852]}},{"type":"Feature","properties":{"State":"Michigan","Deaths":3770,"Age-adjusted Death Rate":36.2,"Year":2010,"name":"Michigan","desc":"Michigan","color":"","source":"Bing Maps","precision":"state/province"},"geometry":{"type":"Point","coordinates":[-85.7351379,44.8626175]}},{"type":"Feature","properties":{"State":"Minnesota","Deaths":2103,"Age-adjusted Death Rate":36.7,"Year":2010,"name":"Minnesota","desc":"Minnesota","color":"","source":"Bing Maps","precision":"state/province"},"geometry":{"type":"Point","coordinates":[-94.1983795,46.3493538]}},{"type":"Feature","properties":{"State":"Mississippi","Deaths":1685,"Age-adjusted Death Rate":56.8,"Year":2010,"name":"Mississippi","desc":"Mississippi","color":"","source":"Bing Maps","precision":"state/province"},"geometry":{"type":"Point","coordinates":[-89.6562424,32.7218018]}},{"type":"Feature","properties":{"State":"Missouri","Deaths":2975,"Age-adjusted Death Rate":47.9,"Year":2010,"name":"Missouri","desc":"Missouri","color":"","source":"Bing Maps","precision":"state/province"},"geometry":{"type":"Point","coordinates":[-92.4778824,38.3679657]}},{"type":"Feature","properties":{"State":"Montana","Deaths":548,"Age-adjusted Death Rate":53.2,"Year":2010,"name":"Montana","desc":"Montana","color":"","source":"Bing Maps","precision":"state/province"},"geometry":{"type":"Point","coordinates":[-109.6450806,47.0334816]}},{"type":"Feature","properties":{"State":"Nebraska","Deaths":700,"Age-adjusted Death Rate":35.8,"Year":2010,"name":"Nebraska","desc":"Nebraska","color":"","source":"Bing Maps","precision":"state/province"},"geometry":{"type":"Point","coordinates":[-99.8111038,41.5272713]}},{"type":"Feature","properties":{"State":"Nevada","Deaths":1088,"Age-adjusted Death Rate":41.3,"Year":2010,"name":"Nevada","desc":"Nevada","color":"","source":"Bing Maps","precision":"state/province"},"geometry":{"type":"Point","coordinates":[-116.6554108,39.3564186]}},{"type":"Feature","properties":{"State":"New Hampshire","Deaths":517,"Age-adjusted Death Rate":37.3,"Year":2010,"name":"New Hampshire","desc":"New Hampshire","color":"","source":"Bing Maps","precision":"state/province"},"geometry":{"type":"Point","coordinates":[-71.5775986,43.6855278]}},{"type":"Feature","properties":{"State":"New Jersey","Deaths":2486,"Age-adjusted Death Rate":26.7,"Year":2010,"name":"New Jersey","desc":"New Jersey","color":"","source":"Bing Maps","precision":"state/province"},"geometry":{"type":"Point","coordinates":[-74.6769104,40.1387787]}},{"type":"Feature","properties":{"State":"New Mexico","Deaths":1233,"Age-adjusted Death Rate":60.7,"Year":2010,"name":"New Mexico","desc":"New Mexico","color":"","source":"Bing Maps","precision":"state/province"},"geometry":{"type":"Point","coordinates":[-106.1084061,34.4213219]}},{"type":"Feature","properties":{"State":"New York","Deaths":5004,"Age-adjusted Death Rate":24.2,"Year":2010,"name":"New York","desc":"New York","color":"","source":"Bing Maps","precision":"state/province"},"geometry":{"type":"Point","coordinates":[-75.6106949,42.9370804]}},{"type":"Feature","properties":{"State":"North Carolina","Deaths":4144,"Age-adjusted Death Rate":43.2,"Year":2010,"name":"North Carolina","desc":"North Carolina","color":"","source":"Bing Maps","precision":"state/province"},"geometry":{"type":"Point","coordinates":[-79.1854095,35.5393448]}},{"type":"Feature","properties":{"State":"North Dakota","Deaths":285,"Age-adjusted Death Rate":38.8,"Year":2010,"name":"North Dakota","desc":"North Dakota","color":"","source":"Bing Maps","precision":"state/province"},"geometry":{"type":"Point","coordinates":[-100.469429,47.4462967]}},{"type":"Feature","properties":{"State":"Oklahoma","Deaths":2288,"Age-adjusted Death Rate":60.3,"Year":2010,"name":"Oklahoma","desc":"Oklahoma","color":"","source":"Bing Maps","precision":"state/province"},"geometry":{"type":"Point","coordinates":[-97.5086136,35.582695]}},{"type":"Feature","properties":{"State":"Oregon","Deaths":1566,"Age-adjusted Death Rate":37.8,"Year":2010,"name":"Oregon","desc":"Oregon","color":"","source":"Bing Maps","precision":"state/province"},"geometry":{"type":"Point","coordinates":[-120.5585861,43.9388123]}},{"type":"Feature","properties":{"State":"Pennsylvania","Deaths":5751,"Age-adjusted Death Rate":41.1,"Year":2010,"name":"Pennsylvania","desc":"Pennsylvania","color":"","source":"Bing Maps","precision":"state/province"},"geometry":{"type":"Point","coordinates":[-77.8387527,40.8965111]}},{"type":"Feature","properties":{"State":"Rhode Island","Deaths":475,"Age-adjusted Death Rate":40.1,"Year":2010,"name":"Rhode Island","desc":"Rhode Island","color":"","source":"Bing Maps","precision":"state/province"},"geometry":{"type":"Point","coordinates":[-71.4543152,41.4887123]}},{"type":"Feature","properties":{"State":"South Carolina","Deaths":2274,"Age-adjusted Death Rate":48.9,"Year":2010,"name":"South Carolina","desc":"South Carolina","color":"","source":"Bing Maps","precision":"state/province"},"geometry":{"type":"Point","coordinates":[-80.8937607,33.9038277]}},{"type":"Feature","properties":{"State":"South Dakota","Deaths":393,"Age-adjusted Death Rate":44.5,"Year":2010,"name":"South Dakota","desc":"South Dakota","color":"","source":"Bing Maps","precision":"state/province"},"geometry":{"type":"Point","coordinates":[-100.2305069,44.4361496]}},{"type":"Feature","properties":{"State":"Tennessee","Deaths":3539,"Age-adjusted Death Rate":54.9,"Year":2010,"name":"Tennessee","desc":"Tennessee","color":"","source":"Bing Maps","precision":"state/province"},"geometry":{"type":"Point","coordinates":[-86.3430481,35.8430023]}},{"type":"Feature","properties":{"State":"Texas","Deaths":9212,"Age-adjusted Death Rate":39,"Year":2010,"name":"Texas","desc":"Texas","color":"","source":"Bing Maps","precision":"state/province"},"geometry":{"type":"Point","coordinates":[-99.3330307,31.4627552]}},{"type":"Feature","properties":{"State":"Utah","Deaths":970,"Age-adjusted Death Rate":40.6,"Year":2010,"name":"Utah","desc":"Utah","color":"","source":"Bing Maps","precision":"state/province"},"geometry":{"type":"Point","coordinates":[-111.6782379,39.3237381]}},{"type":"Feature","properties":{"State":"Vermont","Deaths":298,"Age-adjusted Death Rate":42.7,"Year":2010,"name":"Vermont","desc":"Vermont","color":"","source":"Bing Maps","precision":"state/province"},"geometry":{"type":"Point","coordinates":[-72.6626892,44.0752029]}},{"type":"Feature","properties":{"State":"Virginia","Deaths":2527,"Age-adjusted Death Rate":31.6,"Year":2010,"name":"Virginia","desc":"Virginia","color":"","source":"Bing Maps","precision":"state/province"},"geometry":{"type":"Point","coordinates":[-78.6980972,37.5127869]}},{"type":"Feature","properties":{"State":"Washington","Deaths":2609,"Age-adjusted Death Rate":37.6,"Year":2010,"name":"Washington","desc":"Washington","color":"","source":"Bing Maps","precision":"state/province"},"geometry":{"type":"Point","coordinates":[-120.5562668,47.4112968]}},{"type":"Feature","properties":{"State":"West Virginia","Deaths":1234,"Age-adjusted Death Rate":63.7,"Year":2010,"name":"West Virginia","desc":"West Virginia","color":"","source":"Bing Maps","precision":"state/province"},"geometry":{"type":"Point","coordinates":[-80.6136169,38.6424141]}},{"type":"Feature","properties":{"State":"Wisconsin","Deaths":2525,"Age-adjusted Death Rate":40.8,"Year":2010,"name":"Wisconsin","desc":"Wisconsin","color":"","source":"Bing Maps","precision":"state/province"},"geometry":{"type":"Point","coordinates":[-89.7367401,44.6417885]}},{"type":"Feature","properties":{"State":"Wyoming","Deaths":346,"Age-adjusted Death Rate":59.8,"Year":2010,"name":"Wyoming","desc":"Wyoming","color":"","source":"Bing Maps","precision":"state/province"},"geometry":{"type":"Point","coordinates":[-107.5515137,42.9995766]}},{"type":"Feature","properties":{"State":"Alabama","Deaths":2552,"Age-adjusted Death Rate":50.9,"Year":2015,"name":"Alabama","desc":"Alabama","color":"","source":"Bing Maps","precision":"state/province"},"geometry":{"type":"Point","coordinates":[-86.8403091,32.7665062]}},{"type":"Feature","properties":{"State":"Alaska","Deaths":388,"Age-adjusted Death Rate":57.9,"Year":2015,"name":"Alaska","desc":"Alaska","color":"","source":"Bing Maps","precision":"state/province"},"geometry":{"type":"Point","coordinates":[-153.7042694,63.1742058]}},{"type":"Feature","properties":{"State":"Arizona","Deaths":3539,"Age-adjusted Death Rate":49.2,"Year":2015,"name":"Arizona","desc":"Arizona","color":"","source":"Bing Maps","precision":"state/province"},"geometry":{"type":"Point","coordinates":[-111.6646957,34.2930832]}},{"type":"Feature","properties":{"State":"Arkansas","Deaths":1538,"Age-adjusted Death Rate":49.6,"Year":2015,"name":"Arkansas","desc":"Arkansas","color":"","source":"Bing Maps","precision":"state/province"},"geometry":{"type":"Point","coordinates":[-92.4388733,34.8999214]}},{"type":"Feature","properties":{"State":"California","Deaths":12544,"Age-adjusted Death Rate":30.6,"Year":2015,"name":"California","desc":"California","color":"","source":"Bing Maps","precision":"state/province"},"geometry":{"type":"Point","coordinates":[-119.6175232,37.2551003]}},{"type":"Feature","properties":{"State":"Colorado","Deaths":2725,"Age-adjusted Death Rate":49.7,"Year":2015,"name":"Colorado","desc":"Colorado","color":"","source":"Bing Maps","precision":"state/province"},"geometry":{"type":"Point","coordinates":[-105.5478134,38.9985428]}},{"type":"Feature","properties":{"State":"Connecticut","Deaths":1799,"Age-adjusted Death Rate":44.8,"Year":2015,"name":"Connecticut","desc":"Connecticut","color":"","source":"Bing Maps","precision":"state/province"},"geometry":{"type":"Point","coordinates":[-72.7383041,41.5735016]}},{"type":"Feature","properties":{"State":"Delaware","Deaths":449,"Age-adjusted Death Rate":46,"Year":2015,"name":"Delaware","desc":"Delaware","color":"","source":"Bing Maps","precision":"state/province"},"geometry":{"type":"Point","coordinates":[-75.4674683,39.0081253]}},{"type":"Feature","properties":{"State":"District of Columbia","Deaths":265,"Age-adjusted Death Rate":40.2,"Year":2015,"name":"District of Columbia","desc":"District of Columbia","color":"","source":"Bing Maps","precision":"state/province"},"geometry":{"type":"Point","coordinates":[-77.0172653,38.906189]}},{"type":"Feature","properties":{"State":"Florida","Deaths":10578,"Age-adjusted Death Rate":46.2,"Year":2015,"name":"Florida","desc":"Florida","color":"","source":"Bing Maps","precision":"state/province"},"geometry":{"type":"Point","coordinates":[-82.4722214,28.4925823]}},{"type":"Feature","properties":{"State":"Georgia","Deaths":4344,"Age-adjusted Death Rate":43.2,"Year":2015,"name":"Georgia","desc":"Georgia","color":"","source":"Bing Maps","precision":"state/province"},"geometry":{"type":"Point","coordinates":[-83.4445572,32.6483307]}},{"type":"Feature","properties":{"State":"Hawaii","Deaths":536,"Age-adjusted Death Rate":32.2,"Year":2015,"name":"Hawaii","desc":"Hawaii","color":"","source":"Bing Maps","precision":"state/province"},"geometry":{"type":"Point","coordinates":[-155.5185547,19.5985184]}},{"type":"Feature","properties":{"State":"Idaho","Deaths":746,"Age-adjusted Death Rate":44.7,"Year":2015,"name":"Idaho","desc":"Idaho","color":"","source":"Bing Maps","precision":"state/province"},"geometry":{"type":"Point","coordinates":[-114.6594162,44.3890305]}},{"type":"Feature","properties":{"State":"Illinois","Deaths":4850,"Age-adjusted Death Rate":35.8,"Year":2015,"name":"Illinois","desc":"Illinois","color":"","source":"Bing Maps","precision":"state/province"},"geometry":{"type":"Point","coordinates":[-89.1587677,40.1139374]}},{"type":"Feature","properties":{"State":"Indiana","Deaths":3258,"Age-adjusted Death Rate":47.7,"Year":2015,"name":"Indiana","desc":"Indiana","color":"","source":"Bing Maps","precision":"state/province"},"geometry":{"type":"Point","coordinates":[-86.2817993,39.9198036]}},{"type":"Feature","properties":{"State":"Iowa","Deaths":1537,"Age-adjusted Death Rate":42.1,"Year":2015,"name":"Iowa","desc":"Iowa","color":"","source":"Bing Maps","precision":"state/province"},"geometry":{"type":"Point","coordinates":[-93.4999695,42.0746994]}},{"type":"Feature","properties":{"State":"Kansas","Deaths":1475,"Age-adjusted Death Rate":47.2,"Year":2015,"name":"Kansas","desc":"Kansas","color":"","source":"Bing Maps","precision":"state/province"},"geometry":{"type":"Point","coordinates":[-98.3801727,38.484726]}},{"type":"Feature","properties":{"State":"Kentucky","Deaths":2962,"Age-adjusted Death Rate":66,"Year":2015,"name":"Kentucky","desc":"Kentucky","color":"","source":"Bing Maps","precision":"state/province"},"geometry":{"type":"Point","coordinates":[-85.2876205,37.5272331]}},{"type":"Feature","properties":{"State":"Louisiana","Deaths":2578,"Age-adjusted Death Rate":54.7,"Year":2015,"name":"Louisiana","desc":"Louisiana","color":"","source":"Bing Maps","precision":"state/province"},"geometry":{"type":"Point","coordinates":[-91.8519058,30.9665108]}},{"type":"Feature","properties":{"State":"Maine","Deaths":802,"Age-adjusted Death Rate":53.8,"Year":2015,"name":"Maine","desc":"Maine","color":"","source":"Bing Maps","precision":"state/province"},"geometry":{"type":"Point","coordinates":[-69.203949,45.3152809]}},{"type":"Feature","properties":{"State":"Maryland","Deaths":1903,"Age-adjusted Death Rate":29.7,"Year":2015,"name":"Maryland","desc":"Maryland","color":"","source":"Bing Maps","precision":"state/province"},"geometry":{"type":"Point","coordinates":[-76.7012177,38.9525223]}},{"type":"Feature","properties":{"State":"Massachusetts","Deaths":3229,"Age-adjusted Death Rate":44,"Year":2015,"name":"Massachusetts","desc":"Massachusetts","color":"","source":"Bing Maps","precision":"state/province"},"geometry":{"type":"Point","coordinates":[-71.5661926,42.1561852]}},{"type":"Feature","properties":{"State":"Michigan","Deaths":4647,"Age-adjusted Death Rate":43.9,"Year":2015,"name":"Michigan","desc":"Michigan","color":"","source":"Bing Maps","precision":"state/province"},"geometry":{"type":"Point","coordinates":[-85.7351379,44.8626175]}},{"type":"Feature","properties":{"State":"Minnesota","Deaths":2574,"Age-adjusted Death Rate":42,"Year":2015,"name":"Minnesota","desc":"Minnesota","color":"","source":"Bing Maps","precision":"state/province"},"geometry":{"type":"Point","coordinates":[-94.1983795,46.3493538]}},{"type":"Feature","properties":{"State":"Mississippi","Deaths":1814,"Age-adjusted Death Rate":59.8,"Year":2015,"name":"Mississippi","desc":"Mississippi","color":"","source":"Bing Maps","precision":"state/province"},"geometry":{"type":"Point","coordinates":[-89.6562424,32.7218018]}},{"type":"Feature","properties":{"State":"Missouri","Deaths":3309,"Age-adjusted Death Rate":50.9,"Year":2015,"name":"Missouri","desc":"Missouri","color":"","source":"Bing Maps","precision":"state/province"},"geometry":{"type":"Point","coordinates":[-92.4778824,38.3679657]}},{"type":"Feature","properties":{"State":"Montana","Deaths":637,"Age-adjusted Death Rate":56.3,"Year":2015,"name":"Montana","desc":"Montana","color":"","source":"Bing Maps","precision":"state/province"},"geometry":{"type":"Point","coordinates":[-109.6450806,47.0334816]}},{"type":"Feature","properties":{"State":"Nebraska","Deaths":799,"Age-adjusted Death Rate":38.9,"Year":2015,"name":"Nebraska","desc":"Nebraska","color":"","source":"Bing Maps","precision":"state/province"},"geometry":{"type":"Point","coordinates":[-99.8111038,41.5272713]}},{"type":"Feature","properties":{"State":"Nevada","Deaths":1340,"Age-adjusted Death Rate":45.4,"Year":2015,"name":"Nevada","desc":"Nevada","color":"","source":"Bing Maps","precision":"state/province"},"geometry":{"type":"Point","coordinates":[-116.6554108,39.3564186]}},{"type":"Feature","properties":{"State":"New Hampshire","Deaths":815,"Age-adjusted Death Rate":59,"Year":2015,"name":"New Hampshire","desc":"New Hampshire","color":"","source":"Bing Maps","precision":"state/province"},"geometry":{"type":"Point","coordinates":[-71.5775986,43.6855278]}},{"type":"Feature","properties":{"State":"New Jersey","Deaths":3218,"Age-adjusted Death Rate":33.7,"Year":2015,"name":"New Jersey","desc":"New Jersey","color":"","source":"Bing Maps","precision":"state/province"},"geometry":{"type":"Point","coordinates":[-74.6769104,40.1387787]}},{"type":"Feature","properties":{"State":"New Mexico","Deaths":1430,"Age-adjusted Death Rate":67.3,"Year":2015,"name":"New Mexico","desc":"New Mexico","color":"","source":"Bing Maps","precision":"state/province"},"geometry":{"type":"Point","coordinates":[-106.1084061,34.4213219]}},{"type":"Feature","properties":{"State":"New York","Deaths":6515,"Age-adjusted Death Rate":30.2,"Year":2015,"name":"New York","desc":"New York","color":"","source":"Bing Maps","precision":"state/province"},"geometry":{"type":"Point","coordinates":[-75.6106949,42.9370804]}},{"type":"Feature","properties":{"State":"North Carolina","Deaths":4991,"Age-adjusted Death Rate":47.9,"Year":2015,"name":"North Carolina","desc":"North Carolina","color":"","source":"Bing Maps","precision":"state/province"},"geometry":{"type":"Point","coordinates":[-79.1854095,35.5393448]}},{"type":"Feature","properties":{"State":"North Dakota","Deaths":368,"Age-adjusted Death Rate":44.1,"Year":2015,"name":"North Dakota","desc":"North Dakota","color":"","source":"Bing Maps","precision":"state/province"},"geometry":{"type":"Point","coordinates":[-100.469429,47.4462967]}},{"type":"Feature","properties":{"State":"Ohio","Deaths":6756,"Age-adjusted Death Rate":55.9,"Year":2015,"name":"Ohio","desc":"Ohio","color":"","source":"Bing Maps","precision":"state/province"},"geometry":{"type":"Point","coordinates":[-82.7112122,40.4130516]}},{"type":"Feature","properties":{"State":"Oklahoma","Deaths":2422,"Age-adjusted Death Rate":60.1,"Year":2015,"name":"Oklahoma","desc":"Oklahoma","color":"","source":"Bing Maps","precision":"state/province"},"geometry":{"type":"Point","coordinates":[-97.5086136,35.582695]}},{"type":"Feature","properties":{"State":"Oregon","Deaths":1999,"Age-adjusted Death Rate":44.5,"Year":2015,"name":"Oregon","desc":"Oregon","color":"","source":"Bing Maps","precision":"state/province"},"geometry":{"type":"Point","coordinates":[-120.5585861,43.9388123]}},{"type":"Feature","properties":{"State":"Pennsylvania","Deaths":7324,"Age-adjusted Death Rate":52,"Year":2015,"name":"Pennsylvania","desc":"Pennsylvania","color":"","source":"Bing Maps","precision":"state/province"},"geometry":{"type":"Point","coordinates":[-77.8387527,40.8965111]}},{"type":"Feature","properties":{"State":"Rhode Island","Deaths":649,"Age-adjusted Death Rate":53.1,"Year":2015,"name":"Rhode Island","desc":"Rhode Island","color":"","source":"Bing Maps","precision":"state/province"},"geometry":{"type":"Point","coordinates":[-71.4543152,41.4887123]}},{"type":"Feature","properties":{"State":"South Carolina","Deaths":2737,"Age-adjusted Death Rate":54,"Year":2015,"name":"South Carolina","desc":"South Carolina","color":"","source":"Bing Maps","precision":"state/province"},"geometry":{"type":"Point","coordinates":[-80.8937607,33.9038277]}},{"type":"Feature","properties":{"State":"South Dakota","Deaths":469,"Age-adjusted Death Rate":49.5,"Year":2015,"name":"South Dakota","desc":"South Dakota","color":"","source":"Bing Maps","precision":"state/province"},"geometry":{"type":"Point","coordinates":[-100.2305069,44.4361496]}},{"type":"Feature","properties":{"State":"Tennessee","Deaths":3873,"Age-adjusted Death Rate":56.4,"Year":2015,"name":"Tennessee","desc":"Tennessee","color":"","source":"Bing Maps","precision":"state/province"},"geometry":{"type":"Point","coordinates":[-86.3430481,35.8430023]}},{"type":"Feature","properties":{"State":"Texas","Deaths":9976,"Age-adjusted Death Rate":37.4,"Year":2015,"name":"Texas","desc":"Texas","color":"","source":"Bing Maps","precision":"state/province"},"geometry":{"type":"Point","coordinates":[-99.3330307,31.4627552]}},{"type":"Feature","properties":{"State":"Utah","Deaths":1223,"Age-adjusted Death Rate":45.6,"Year":2015,"name":"Utah","desc":"Utah","color":"","source":"Bing Maps","precision":"state/province"},"geometry":{"type":"Point","coordinates":[-111.6782379,39.3237381]}},{"type":"Feature","properties":{"State":"Vermont","Deaths":346,"Age-adjusted Death Rate":48.4,"Year":2015,"name":"Vermont","desc":"Vermont","color":"","source":"Bing Maps","precision":"state/province"},"geometry":{"type":"Point","coordinates":[-72.6626892,44.0752029]}},{"type":"Feature","properties":{"State":"Virginia","Deaths":3429,"Age-adjusted Death Rate":39.6,"Year":2015,"name":"Virginia","desc":"Virginia","color":"","source":"Bing Maps","precision":"state/province"},"geometry":{"type":"Point","coordinates":[-78.6980972,37.5127869]}},{"type":"Feature","properties":{"State":"Washington","Deaths":3192,"Age-adjusted Death Rate":41.9,"Year":2015,"name":"Washington","desc":"Washington","color":"","source":"Bing Maps","precision":"state/province"},"geometry":{"type":"Point","coordinates":[-120.5562668,47.4112968]}},{"type":"Feature","properties":{"State":"West Virginia","Deaths":1516,"Age-adjusted Death Rate":77.9,"Year":2015,"name":"West Virginia","desc":"West Virginia","color":"","source":"Bing Maps","precision":"state/province"},"geometry":{"type":"Point","coordinates":[-80.6136169,38.6424141]}},{"type":"Feature","properties":{"State":"Wisconsin","Deaths":3206,"Age-adjusted Death Rate":49.3,"Year":2015,"name":"Wisconsin","desc":"Wisconsin","color":"","source":"Bing Maps","precision":"state/province"},"geometry":{"type":"Point","coordinates":[-89.7367401,44.6417885]}},{"type":"Feature","properties":{"State":"Wyoming","Deaths":400,"Age-adjusted Death Rate":65.8,"Year":2015,"name":"Wyoming","desc":"Wyoming","color":"","source":"Bing Maps","precision":"state/province"},"geometry":{"type":"Point","coordinates":[-107.5515137,42.9995766]}}]}